name,lat,lng
Papua New Guinea,-6.314993,143.95555
Democratic Republic of Congo,-2.5,23.5
Chad,15.454166,18.732207
Mali,17.570692,-3.996166
Niger,17.607789,8.081666
Nigeria,9.0820,8.6753
Central African Republic,6.611111,20.939444
Yemen,15.552727,48.516388
Syria,34.802075,38.996815